{
  "store": [
    {
      "id": 1,
      "name": "81 Quang Trung, Da Nang, Viet Nam",
      "address": "81 Quang Trung, Da Nang, Viet Nam",
      "zipcode": "〒150-0033",
      "distance": 0.5,
      "poster": "https://media.timeout.com/images/105772322/750/422/image.webp",
      "convenient": [
        "drink",
        "kid",
        "feed",
        "dating",
        "cut"
      ],
      "latitude": 16.0740691,
      "longitude": 108.2187079,
      "books": [
        {
          "id": 1,
          "title": "地球の歩き方ゴールドコースト&ケアンズ 2020 2021",
          "price": "2,200円",
          "author": "川野 ひろし (著)",
          "rating": 3.7,
          "tag": [
            {
              "id": 1,
              "name": "#英会話"
            },
            {
              "id": 2,
              "name": "#実用的"
            },
            {
              "id": 3,
              "name": "#わかりにくい"
            }
          ],
          "release_date": "2017/4/22",
          "poster_url": "https://m.media-amazon.com/images/I/61yUbi86seL._SY466_.jpg",
          "is_marked": false,
          "store": [
            {
              "id": 1,
              "name": "代官山 蔦屋書店",
              "zip_code": "T150-0033",
              "address": "東京都渋谷区猿楽町16-15",
              "picture": "https://store.tsite.jp/static_contents/site/tsite/daikanyama/img/og.jpg"
            },
            {
              "id": 2,
              "name": "銀座 蔦屋書店",
              "zip_code": "T104-0061",
              "address": "東京都 中央区 銀座トウキョウト チュウオウク ギンザ",
              "picture": "https://store.tsite.jp/static_contents/site/tsite/ginza/img/about/key.jpg"
            },
            {
              "id": 3,
              "name": "#英会話",
              "zip_code": "T150-0033",
              "address": "羽田空港",
              "picture": "https://store.tsite.jp/static_contents/site/tsite/haneda-airport/img/about/key.jpg?time=200324"
            }
          ]
        },
        {
          "id": 2,
          "title": "G'day Mate! 旅で役立つオーストラリア英会話",
          "price": "2,200円",
          "author": "川野ひろし (著)",
          "rating": 4.1,
          "tag": [
            {
              "id": 1,
              "name": "#英会話"
            },
            {
              "id": 2,
              "name": "#実用的"
            },
            {
              "id": 3,
              "name": "#わかりにくい"
            }
          ],
          "release_date": "2021/1/12",
          "poster_url": "https://m.media-amazon.com/images/I/51M-mYD6kYL._SY445_SX342_.jpg",
          "is_marked": false,
          "store": [
            {
              "id": 1,
              "name": "代官山 蔦屋書店",
              "zip_code": "T150-0033",
              "address": "東京都渋谷区猿楽町16-15",
              "picture": "https://store.tsite.jp/static_contents/site/tsite/daikanyama/img/og.jpg"
            },
            {
              "id": 2,
              "name": "銀座 蔦屋書店",
              "zip_code": "T104-0061",
              "address": "東京都 中央区 銀座トウキョウト チュウオウク ギンザ",
              "picture": "https://store.tsite.jp/static_contents/site/tsite/ginza/img/about/key.jpg"
            },
            {
              "id": 3,
              "name": "#英会話",
              "zip_code": "T150-0033",
              "address": "羽田空港",
              "picture": "https://store.tsite.jp/static_contents/site/tsite/haneda-airport/img/about/key.jpg?time=200324"
            }
          ]
        }
      ]
    },
    {
      "id": 2,
      "name": "Danang Meseum",
      "address": "Danang Meseum",
      "zipcode": "〒150-0033",
      "distance": 0.5,
      "poster": "https://media.timeout.com/images/105772322/750/422/image.webp",
      "convenient": [
        "drink",
        "kid",
        "feed",
        "dating",
        "cut"
      ],
      "latitude": 16.074146,
      "longitude": 108.2170191,
      "books": [
        {
          "id": 1,
          "title": "地球の歩き方ゴールドコースト&ケアンズ 2020 2021",
          "price": "2,200円",
          "author": "川野 ひろし (著)",
          "rating": 3.7,
          "tag": [
            {
              "id": 1,
              "name": "#英会話"
            },
            {
              "id": 2,
              "name": "#実用的"
            },
            {
              "id": 3,
              "name": "#わかりにくい"
            }
          ],
          "release_date": "2017/4/22",
          "poster_url": "https://m.media-amazon.com/images/I/61yUbi86seL._SY466_.jpg",
          "is_marked": false,
          "store": [
            {
              "id": 1,
              "name": "代官山 蔦屋書店",
              "zip_code": "T150-0033",
              "address": "東京都渋谷区猿楽町16-15",
              "picture": "https://store.tsite.jp/static_contents/site/tsite/daikanyama/img/og.jpg"
            },
            {
              "id": 2,
              "name": "銀座 蔦屋書店",
              "zip_code": "T104-0061",
              "address": "東京都 中央区 銀座トウキョウト チュウオウク ギンザ",
              "picture": "https://store.tsite.jp/static_contents/site/tsite/ginza/img/about/key.jpg"
            },
            {
              "id": 3,
              "name": "#英会話",
              "zip_code": "T150-0033",
              "address": "羽田空港",
              "picture": "https://store.tsite.jp/static_contents/site/tsite/haneda-airport/img/about/key.jpg?time=200324"
            }
          ]
        },
        {
          "id": 2,
          "title": "G'day Mate! 旅で役立つオーストラリア英会話",
          "price": "2,200円",
          "author": "川野ひろし (著)",
          "rating": 4.1,
          "tag": [
            {
              "id": 1,
              "name": "#英会話"
            },
            {
              "id": 2,
              "name": "#実用的"
            },
            {
              "id": 3,
              "name": "#わかりにくい"
            }
          ],
          "release_date": "2021/1/12",
          "poster_url": "https://m.media-amazon.com/images/I/51M-mYD6kYL._SY445_SX342_.jpg",
          "is_marked": false,
          "store": [
            {
              "id": 1,
              "name": "代官山 蔦屋書店",
              "zip_code": "T150-0033",
              "address": "東京都渋谷区猿楽町16-15",
              "picture": "https://store.tsite.jp/static_contents/site/tsite/daikanyama/img/og.jpg"
            },
            {
              "id": 2,
              "name": "銀座 蔦屋書店",
              "zip_code": "T104-0061",
              "address": "東京都 中央区 銀座トウキョウト チュウオウク ギンザ",
              "picture": "https://store.tsite.jp/static_contents/site/tsite/ginza/img/about/key.jpg"
            },
            {
              "id": 3,
              "name": "#英会話",
              "zip_code": "T150-0033",
              "address": "羽田空港",
              "picture": "https://store.tsite.jp/static_contents/site/tsite/haneda-airport/img/about/key.jpg?time=200324"
            }
          ]
        }
      ]
    },
    {
      "id": 3,
      "name": "Tran Phu High School",
      "address": "Tran Phu High School",
      "zipcode": "〒150-0033",
      "distance": 0.5,
      "poster": "https://media.timeout.com/images/105772322/750/422/image.webp",
      "convenient": [
        "drink",
        "kid",
        "feed",
        "dating",
        "cut"
      ],
      "latitude": 16.074146,
      "longitude": 108.2170191,
      "books": [
        {
          "id": 1,
          "title": "地球の歩き方ゴールドコースト&ケアンズ 2020 2021",
          "price": "2,200円",
          "author": "川野 ひろし (著)",
          "rating": 3.7,
          "tag": [
            {
              "id": 1,
              "name": "#英会話"
            },
            {
              "id": 2,
              "name": "#実用的"
            },
            {
              "id": 3,
              "name": "#わかりにくい"
            }
          ],
          "release_date": "2017/4/22",
          "poster_url": "https://m.media-amazon.com/images/I/61yUbi86seL._SY466_.jpg",
          "is_marked": false,
          "store": [
            {
              "id": 1,
              "name": "代官山 蔦屋書店",
              "zip_code": "T150-0033",
              "address": "東京都渋谷区猿楽町16-15",
              "picture": "https://store.tsite.jp/static_contents/site/tsite/daikanyama/img/og.jpg"
            },
            {
              "id": 2,
              "name": "銀座 蔦屋書店",
              "zip_code": "T104-0061",
              "address": "東京都 中央区 銀座トウキョウト チュウオウク ギンザ",
              "picture": "https://store.tsite.jp/static_contents/site/tsite/ginza/img/about/key.jpg"
            },
            {
              "id": 3,
              "name": "#英会話",
              "zip_code": "T150-0033",
              "address": "羽田空港",
              "picture": "https://store.tsite.jp/static_contents/site/tsite/haneda-airport/img/about/key.jpg?time=200324"
            }
          ]
        },
        {
          "id": 2,
          "title": "G'day Mate! 旅で役立つオーストラリア英会話",
          "price": "2,200円",
          "author": "川野ひろし (著)",
          "rating": 4.1,
          "tag": [
            {
              "id": 1,
              "name": "#英会話"
            },
            {
              "id": 2,
              "name": "#実用的"
            },
            {
              "id": 3,
              "name": "#わかりにくい"
            }
          ],
          "release_date": "2021/1/12",
          "poster_url": "https://m.media-amazon.com/images/I/51M-mYD6kYL._SY445_SX342_.jpg",
          "is_marked": false,
          "store": [
            {
              "id": 1,
              "name": "代官山 蔦屋書店",
              "zip_code": "T150-0033",
              "address": "東京都渋谷区猿楽町16-15",
              "picture": "https://store.tsite.jp/static_contents/site/tsite/daikanyama/img/og.jpg"
            },
            {
              "id": 2,
              "name": "銀座 蔦屋書店",
              "zip_code": "T104-0061",
              "address": "東京都 中央区 銀座トウキョウト チュウオウク ギンザ",
              "picture": "https://store.tsite.jp/static_contents/site/tsite/ginza/img/about/key.jpg"
            },
            {
              "id": 3,
              "name": "#英会話",
              "zip_code": "T150-0033",
              "address": "羽田空港",
              "picture": "https://store.tsite.jp/static_contents/site/tsite/haneda-airport/img/about/key.jpg?time=200324"
            }
          ]
        }
      ]
    },
    {
      "id": 4,
      "name": "Phan Chau Trinh High School",
      "address": "Phan Chau Trinh High School",
      "zipcode": "〒150-0033",
      "distance": 0.5,
      "poster": "https://media.timeout.com/images/105772322/750/422/image.webp",
      "convenient": [
        "drink",
        "kid",
        "feed",
        "dating",
        "cut"
      ],
      "latitude": 16.0732061,
      "longitude": 108.2169689,
      "books": [
        {
          "id": 1,
          "title": "地球の歩き方ゴールドコースト&ケアンズ 2020 2021",
          "price": "2,200円",
          "author": "川野 ひろし (著)",
          "rating": 3.7,
          "tag": [
            {
              "id": 1,
              "name": "#英会話"
            },
            {
              "id": 2,
              "name": "#実用的"
            },
            {
              "id": 3,
              "name": "#わかりにくい"
            }
          ],
          "release_date": "2017/4/22",
          "poster_url": "https://m.media-amazon.com/images/I/61yUbi86seL._SY466_.jpg",
          "is_marked": false,
          "store": [
            {
              "id": 1,
              "name": "代官山 蔦屋書店",
              "zip_code": "T150-0033",
              "address": "東京都渋谷区猿楽町16-15",
              "picture": "https://store.tsite.jp/static_contents/site/tsite/daikanyama/img/og.jpg"
            },
            {
              "id": 2,
              "name": "銀座 蔦屋書店",
              "zip_code": "T104-0061",
              "address": "東京都 中央区 銀座トウキョウト チュウオウク ギンザ",
              "picture": "https://store.tsite.jp/static_contents/site/tsite/ginza/img/about/key.jpg"
            },
            {
              "id": 3,
              "name": "#英会話",
              "zip_code": "T150-0033",
              "address": "羽田空港",
              "picture": "https://store.tsite.jp/static_contents/site/tsite/haneda-airport/img/about/key.jpg?time=200324"
            }
          ]
        },
        {
          "id": 2,
          "title": "G'day Mate! 旅で役立つオーストラリア英会話",
          "price": "2,200円",
          "author": "川野ひろし (著)",
          "rating": 4.1,
          "tag": [
            {
              "id": 1,
              "name": "#英会話"
            },
            {
              "id": 2,
              "name": "#実用的"
            },
            {
              "id": 3,
              "name": "#わかりにくい"
            }
          ],
          "release_date": "2021/1/12",
          "poster_url": "https://m.media-amazon.com/images/I/51M-mYD6kYL._SY445_SX342_.jpg",
          "is_marked": false,
          "store": [
            {
              "id": 1,
              "name": "代官山 蔦屋書店",
              "zip_code": "T150-0033",
              "address": "東京都渋谷区猿楽町16-15",
              "picture": "https://store.tsite.jp/static_contents/site/tsite/daikanyama/img/og.jpg"
            },
            {
              "id": 2,
              "name": "銀座 蔦屋書店",
              "zip_code": "T104-0061",
              "address": "東京都 中央区 銀座トウキョウト チュウオウク ギンザ",
              "picture": "https://store.tsite.jp/static_contents/site/tsite/ginza/img/about/key.jpg"
            },
            {
              "id": 3,
              "name": "#英会話",
              "zip_code": "T150-0033",
              "address": "羽田空港",
              "picture": "https://store.tsite.jp/static_contents/site/tsite/haneda-airport/img/about/key.jpg?time=200324"
            }
          ]
        }
      ]
    },
    {
      "id": 5,
      "name": "Danang city Police Department",
      "address": "Danang city Police Department",
      "zipcode": "〒150-0033",
      "distance": 0.5,
      "poster": "https://media.timeout.com/images/105772322/750/422/image.webp",
      "convenient": [
        "drink",
        "kid",
        "feed",
        "dating",
        "cut"
      ],
      "latitude": 16.0751345,
      "longitude": 108.217229,
      "books": [
        {
          "id": 1,
          "title": "地球の歩き方ゴールドコースト&ケアンズ 2020 2021",
          "price": "2,200円",
          "author": "川野 ひろし (著)",
          "rating": 3.7,
          "tag": [
            {
              "id": 1,
              "name": "#英会話"
            },
            {
              "id": 2,
              "name": "#実用的"
            },
            {
              "id": 3,
              "name": "#わかりにくい"
            }
          ],
          "release_date": "2017/4/22",
          "poster_url": "https://m.media-amazon.com/images/I/61yUbi86seL._SY466_.jpg",
          "is_marked": false,
          "store": [
            {
              "id": 1,
              "name": "代官山 蔦屋書店",
              "zip_code": "T150-0033",
              "address": "東京都渋谷区猿楽町16-15",
              "picture": "https://store.tsite.jp/static_contents/site/tsite/daikanyama/img/og.jpg"
            },
            {
              "id": 2,
              "name": "銀座 蔦屋書店",
              "zip_code": "T104-0061",
              "address": "東京都 中央区 銀座トウキョウト チュウオウク ギンザ",
              "picture": "https://store.tsite.jp/static_contents/site/tsite/ginza/img/about/key.jpg"
            },
            {
              "id": 3,
              "name": "#英会話",
              "zip_code": "T150-0033",
              "address": "羽田空港",
              "picture": "https://store.tsite.jp/static_contents/site/tsite/haneda-airport/img/about/key.jpg?time=200324"
            }
          ]
        },
        {
          "id": 2,
          "title": "G'day Mate! 旅で役立つオーストラリア英会話",
          "price": "2,200円",
          "author": "川野ひろし (著)",
          "rating": 4.1,
          "tag": [
            {
              "id": 1,
              "name": "#英会話"
            },
            {
              "id": 2,
              "name": "#実用的"
            },
            {
              "id": 3,
              "name": "#わかりにくい"
            }
          ],
          "release_date": "2021/1/12",
          "poster_url": "https://m.media-amazon.com/images/I/51M-mYD6kYL._SY445_SX342_.jpg",
          "is_marked": false,
          "store": [
            {
              "id": 1,
              "name": "代官山 蔦屋書店",
              "zip_code": "T150-0033",
              "address": "東京都渋谷区猿楽町16-15",
              "picture": "https://store.tsite.jp/static_contents/site/tsite/daikanyama/img/og.jpg"
            },
            {
              "id": 2,
              "name": "銀座 蔦屋書店",
              "zip_code": "T104-0061",
              "address": "東京都 中央区 銀座トウキョウト チュウオウク ギンザ",
              "picture": "https://store.tsite.jp/static_contents/site/tsite/ginza/img/about/key.jpg"
            },
            {
              "id": 3,
              "name": "#英会話",
              "zip_code": "T150-0033",
              "address": "羽田空港",
              "picture": "https://store.tsite.jp/static_contents/site/tsite/haneda-airport/img/about/key.jpg?time=200324"
            }
          ]
        }
      ]
    },
    {
      "id": 6,
      "name": "Ly Tu Trong Primary School",
      "address": "Ly Tu Trong Primary School",
      "zipcode": "〒150-0033",
      "distance": 0.5,
      "poster": "https://media.timeout.com/images/105772322/750/422/image.webp",
      "convenient": [
        "drink",
        "kid",
        "feed",
        "dating",
        "cut"
      ],
      "latitude": 16.0766675,
      "longitude": 108.218407,
      "books": [
        {
          "id": 1,
          "title": "地球の歩き方ゴールドコースト&ケアンズ 2020 2021",
          "price": "2,200円",
          "author": "川野 ひろし (著)",
          "rating": 3.7,
          "tag": [
            {
              "id": 1,
              "name": "#英会話"
            },
            {
              "id": 2,
              "name": "#実用的"
            },
            {
              "id": 3,
              "name": "#わかりにくい"
            }
          ],
          "release_date": "2017/4/22",
          "poster_url": "https://m.media-amazon.com/images/I/61yUbi86seL._SY466_.jpg",
          "is_marked": false,
          "store": [
            {
              "id": 1,
              "name": "代官山 蔦屋書店",
              "zip_code": "T150-0033",
              "address": "東京都渋谷区猿楽町16-15",
              "picture": "https://store.tsite.jp/static_contents/site/tsite/daikanyama/img/og.jpg"
            },
            {
              "id": 2,
              "name": "銀座 蔦屋書店",
              "zip_code": "T104-0061",
              "address": "東京都 中央区 銀座トウキョウト チュウオウク ギンザ",
              "picture": "https://store.tsite.jp/static_contents/site/tsite/ginza/img/about/key.jpg"
            },
            {
              "id": 3,
              "name": "#英会話",
              "zip_code": "T150-0033",
              "address": "羽田空港",
              "picture": "https://store.tsite.jp/static_contents/site/tsite/haneda-airport/img/about/key.jpg?time=200324"
            }
          ]
        },
        {
          "id": 2,
          "title": "G'day Mate! 旅で役立つオーストラリア英会話",
          "price": "2,200円",
          "author": "川野ひろし (著)",
          "rating": 4.1,
          "tag": [
            {
              "id": 1,
              "name": "#英会話"
            },
            {
              "id": 2,
              "name": "#実用的"
            },
            {
              "id": 3,
              "name": "#わかりにくい"
            }
          ],
          "release_date": "2021/1/12",
          "poster_url": "https://m.media-amazon.com/images/I/51M-mYD6kYL._SY445_SX342_.jpg",
          "is_marked": false,
          "store": [
            {
              "id": 1,
              "name": "代官山 蔦屋書店",
              "zip_code": "T150-0033",
              "address": "東京都渋谷区猿楽町16-15",
              "picture": "https://store.tsite.jp/static_contents/site/tsite/daikanyama/img/og.jpg"
            },
            {
              "id": 2,
              "name": "銀座 蔦屋書店",
              "zip_code": "T104-0061",
              "address": "東京都 中央区 銀座トウキョウト チュウオウク ギンザ",
              "picture": "https://store.tsite.jp/static_contents/site/tsite/ginza/img/about/key.jpg"
            },
            {
              "id": 3,
              "name": "#英会話",
              "zip_code": "T150-0033",
              "address": "羽田空港",
              "picture": "https://store.tsite.jp/static_contents/site/tsite/haneda-airport/img/about/key.jpg?time=200324"
            }
          ]
        }
      ]
    },
    {
      "id": 7,
      "name": "Nguyen Hue Secondary School",
      "address": "Nguyen Hue Secondary School",
      "zipcode": "〒150-0033",
      "distance": 0.5,
      "poster": "https://media.timeout.com/images/105772322/750/422/image.webp",
      "convenient": [
        "drink",
        "kid",
        "feed",
        "dating",
        "cut"
      ],
      "latitude": 16.0745505,
      "longitude": 108.2163657,
      "books": [
        {
          "id": 1,
          "title": "地球の歩き方ゴールドコースト&ケアンズ 2020 2021",
          "price": "2,200円",
          "author": "川野 ひろし (著)",
          "rating": 3.7,
          "tag": [
            {
              "id": 1,
              "name": "#英会話"
            },
            {
              "id": 2,
              "name": "#実用的"
            },
            {
              "id": 3,
              "name": "#わかりにくい"
            }
          ],
          "release_date": "2017/4/22",
          "poster_url": "https://m.media-amazon.com/images/I/61yUbi86seL._SY466_.jpg",
          "is_marked": false,
          "store": [
            {
              "id": 1,
              "name": "代官山 蔦屋書店",
              "zip_code": "T150-0033",
              "address": "東京都渋谷区猿楽町16-15",
              "picture": "https://store.tsite.jp/static_contents/site/tsite/daikanyama/img/og.jpg"
            },
            {
              "id": 2,
              "name": "銀座 蔦屋書店",
              "zip_code": "T104-0061",
              "address": "東京都 中央区 銀座トウキョウト チュウオウク ギンザ",
              "picture": "https://store.tsite.jp/static_contents/site/tsite/ginza/img/about/key.jpg"
            },
            {
              "id": 3,
              "name": "#英会話",
              "zip_code": "T150-0033",
              "address": "羽田空港",
              "picture": "https://store.tsite.jp/static_contents/site/tsite/haneda-airport/img/about/key.jpg?time=200324"
            }
          ]
        },
        {
          "id": 2,
          "title": "G'day Mate! 旅で役立つオーストラリア英会話",
          "price": "2,200円",
          "author": "川野ひろし (著)",
          "rating": 4.1,
          "tag": [
            {
              "id": 1,
              "name": "#英会話"
            },
            {
              "id": 2,
              "name": "#実用的"
            },
            {
              "id": 3,
              "name": "#わかりにくい"
            }
          ],
          "release_date": "2021/1/12",
          "poster_url": "https://m.media-amazon.com/images/I/51M-mYD6kYL._SY445_SX342_.jpg",
          "is_marked": false,
          "store": [
            {
              "id": 1,
              "name": "代官山 蔦屋書店",
              "zip_code": "T150-0033",
              "address": "東京都渋谷区猿楽町16-15",
              "picture": "https://store.tsite.jp/static_contents/site/tsite/daikanyama/img/og.jpg"
            },
            {
              "id": 2,
              "name": "銀座 蔦屋書店",
              "zip_code": "T104-0061",
              "address": "東京都 中央区 銀座トウキョウト チュウオウク ギンザ",
              "picture": "https://store.tsite.jp/static_contents/site/tsite/ginza/img/about/key.jpg"
            },
            {
              "id": 3,
              "name": "#英会話",
              "zip_code": "T150-0033",
              "address": "羽田空港",
              "picture": "https://store.tsite.jp/static_contents/site/tsite/haneda-airport/img/about/key.jpg?time=200324"
            }
          ]
        }
      ]
    },
    {
      "id": 8,
      "name": "University of Technology and Education",
      "address": "University of Technology and Education",
      "zipcode": "〒150-0033",
      "distance": 0.5,
      "poster": "https://media.timeout.com/images/105772322/750/422/image.webp",
      "convenient": [
        "drink",
        "kid",
        "feed",
        "dating",
        "cut"
      ],
      "latitude": 16.0773428,
      "longitude": 108.2134243,
      "books": [
        {
          "id": 1,
          "title": "地球の歩き方ゴールドコースト&ケアンズ 2020 2021",
          "price": "2,200円",
          "author": "川野 ひろし (著)",
          "rating": 3.7,
          "tag": [
            {
              "id": 1,
              "name": "#英会話"
            },
            {
              "id": 2,
              "name": "#実用的"
            },
            {
              "id": 3,
              "name": "#わかりにくい"
            }
          ],
          "release_date": "2017/4/22",
          "poster_url": "https://m.media-amazon.com/images/I/61yUbi86seL._SY466_.jpg",
          "is_marked": false,
          "store": [
            {
              "id": 1,
              "name": "代官山 蔦屋書店",
              "zip_code": "T150-0033",
              "address": "東京都渋谷区猿楽町16-15",
              "picture": "https://store.tsite.jp/static_contents/site/tsite/daikanyama/img/og.jpg"
            },
            {
              "id": 2,
              "name": "銀座 蔦屋書店",
              "zip_code": "T104-0061",
              "address": "東京都 中央区 銀座トウキョウト チュウオウク ギンザ",
              "picture": "https://store.tsite.jp/static_contents/site/tsite/ginza/img/about/key.jpg"
            },
            {
              "id": 3,
              "name": "#英会話",
              "zip_code": "T150-0033",
              "address": "羽田空港",
              "picture": "https://store.tsite.jp/static_contents/site/tsite/haneda-airport/img/about/key.jpg?time=200324"
            }
          ]
        },
        {
          "id": 2,
          "title": "G'day Mate! 旅で役立つオーストラリア英会話",
          "price": "2,200円",
          "author": "川野ひろし (著)",
          "rating": 4.1,
          "tag": [
            {
              "id": 1,
              "name": "#英会話"
            },
            {
              "id": 2,
              "name": "#実用的"
            },
            {
              "id": 3,
              "name": "#わかりにくい"
            }
          ],
          "release_date": "2021/1/12",
          "poster_url": "https://m.media-amazon.com/images/I/51M-mYD6kYL._SY445_SX342_.jpg",
          "is_marked": false,
          "store": [
            {
              "id": 1,
              "name": "代官山 蔦屋書店",
              "zip_code": "T150-0033",
              "address": "東京都渋谷区猿楽町16-15",
              "picture": "https://store.tsite.jp/static_contents/site/tsite/daikanyama/img/og.jpg"
            },
            {
              "id": 2,
              "name": "銀座 蔦屋書店",
              "zip_code": "T104-0061",
              "address": "東京都 中央区 銀座トウキョウト チュウオウク ギンザ",
              "picture": "https://store.tsite.jp/static_contents/site/tsite/ginza/img/about/key.jpg"
            },
            {
              "id": 3,
              "name": "#英会話",
              "zip_code": "T150-0033",
              "address": "羽田空港",
              "picture": "https://store.tsite.jp/static_contents/site/tsite/haneda-airport/img/about/key.jpg?time=200324"
            }
          ]
        }
      ]
    },
    {
      "id": 9,
      "name": "Danang Hospital",
      "address": "Danang Hospital",
      "zipcode": "〒150-0033",
      "distance": 0.5,
      "poster": "https://media.timeout.com/images/105772322/750/422/image.webp",
      "convenient": [
        "drink",
        "kid",
        "feed",
        "dating",
        "cut"
      ],
      "latitude": 16.0729913,
      "longitude": 108.2155498,
      "books": [
        {
          "id": 1,
          "title": "地球の歩き方ゴールドコースト&ケアンズ 2020 2021",
          "price": "2,200円",
          "author": "川野 ひろし (著)",
          "rating": 3.7,
          "tag": [
            {
              "id": 1,
              "name": "#英会話"
            },
            {
              "id": 2,
              "name": "#実用的"
            },
            {
              "id": 3,
              "name": "#わかりにくい"
            }
          ],
          "release_date": "2017/4/22",
          "poster_url": "https://m.media-amazon.com/images/I/61yUbi86seL._SY466_.jpg",
          "is_marked": false,
          "store": [
            {
              "id": 1,
              "name": "代官山 蔦屋書店",
              "zip_code": "T150-0033",
              "address": "東京都渋谷区猿楽町16-15",
              "picture": "https://store.tsite.jp/static_contents/site/tsite/daikanyama/img/og.jpg"
            },
            {
              "id": 2,
              "name": "銀座 蔦屋書店",
              "zip_code": "T104-0061",
              "address": "東京都 中央区 銀座トウキョウト チュウオウク ギンザ",
              "picture": "https://store.tsite.jp/static_contents/site/tsite/ginza/img/about/key.jpg"
            },
            {
              "id": 3,
              "name": "#英会話",
              "zip_code": "T150-0033",
              "address": "羽田空港",
              "picture": "https://store.tsite.jp/static_contents/site/tsite/haneda-airport/img/about/key.jpg?time=200324"
            }
          ]
        },
        {
          "id": 2,
          "title": "G'day Mate! 旅で役立つオーストラリア英会話",
          "price": "2,200円",
          "author": "川野ひろし (著)",
          "rating": 4.1,
          "tag": [
            {
              "id": 1,
              "name": "#英会話"
            },
            {
              "id": 2,
              "name": "#実用的"
            },
            {
              "id": 3,
              "name": "#わかりにくい"
            }
          ],
          "release_date": "2021/1/12",
          "poster_url": "https://m.media-amazon.com/images/I/51M-mYD6kYL._SY445_SX342_.jpg",
          "is_marked": false,
          "store": [
            {
              "id": 1,
              "name": "代官山 蔦屋書店",
              "zip_code": "T150-0033",
              "address": "東京都渋谷区猿楽町16-15",
              "picture": "https://store.tsite.jp/static_contents/site/tsite/daikanyama/img/og.jpg"
            },
            {
              "id": 2,
              "name": "銀座 蔦屋書店",
              "zip_code": "T104-0061",
              "address": "東京都 中央区 銀座トウキョウト チュウオウク ギンザ",
              "picture": "https://store.tsite.jp/static_contents/site/tsite/ginza/img/about/key.jpg"
            },
            {
              "id": 3,
              "name": "#英会話",
              "zip_code": "T150-0033",
              "address": "羽田空港",
              "picture": "https://store.tsite.jp/static_contents/site/tsite/haneda-airport/img/about/key.jpg?time=200324"
            }
          ]
        },
        {
          "id": 10,
          "name": "Bay Capital Da Nang Hotel",
          "address": "Bay Capital Da Nang Hotel",
          "zipcode": "〒150-0033",
          "distance": 0.5,
          "poster": "https://media.timeout.com/images/105772322/750/422/image.webp",
          "latitude": 16.0750655,
          "longitude": 108.2171207,
          "books": [
            {
              "id": 1,
              "title": "地球の歩き方ゴールドコースト&ケアンズ 2020 2021",
              "price": "2,200円",
              "author": "川野 ひろし (著)",
              "rating": 3.7,
              "tag": [
                {
                  "id": 1,
                  "name": "#英会話"
                },
                {
                  "id": 2,
                  "name": "#実用的"
                },
                {
                  "id": 3,
                  "name": "#わかりにくい"
                }
              ],
              "release_date": "2017/4/22",
              "poster_url": "https://m.media-amazon.com/images/I/61yUbi86seL._SY466_.jpg",
              "is_marked": false,
              "store": [
                {
                  "id": 1,
                  "name": "代官山 蔦屋書店",
                  "zip_code": "T150-0033",
                  "address": "東京都渋谷区猿楽町16-15",
                  "picture": "https://store.tsite.jp/static_contents/site/tsite/daikanyama/img/og.jpg"
                },
                {
                  "id": 2,
                  "name": "銀座 蔦屋書店",
                  "zip_code": "T104-0061",
                  "address": "東京都 中央区 銀座トウキョウト チュウオウク ギンザ",
                  "picture": "https://store.tsite.jp/static_contents/site/tsite/ginza/img/about/key.jpg"
                },
                {
                  "id": 3,
                  "name": "#英会話",
                  "zip_code": "T150-0033",
                  "address": "羽田空港",
                  "picture": "https://store.tsite.jp/static_contents/site/tsite/haneda-airport/img/about/key.jpg?time=200324"
                }
              ]
            },
            {
              "id": 2,
              "title": "G'day Mate! 旅で役立つオーストラリア英会話",
              "price": "2,200円",
              "author": "川野ひろし (著)",
              "rating": 4.1,
              "tag": [
                {
                  "id": 1,
                  "name": "#英会話"
                },
                {
                  "id": 2,
                  "name": "#実用的"
                },
                {
                  "id": 3,
                  "name": "#わかりにくい"
                }
              ],
              "release_date": "2021/1/12",
              "poster_url": "https://m.media-amazon.com/images/I/51M-mYD6kYL._SY445_SX342_.jpg",
              "is_marked": false,
              "store": [
                {
                  "id": 1,
                  "name": "代官山 蔦屋書店",
                  "zip_code": "T150-0033",
                  "address": "東京都渋谷区猿楽町16-15",
                  "picture": "https://store.tsite.jp/static_contents/site/tsite/daikanyama/img/og.jpg"
                },
                {
                  "id": 2,
                  "name": "銀座 蔦屋書店",
                  "zip_code": "T104-0061",
                  "address": "東京都 中央区 銀座トウキョウト チュウオウク ギンザ",
                  "picture": "https://store.tsite.jp/static_contents/site/tsite/ginza/img/about/key.jpg"
                },
                {
                  "id": 3,
                  "name": "#英会話",
                  "zip_code": "T150-0033",
                  "address": "羽田空港",
                  "picture": "https://store.tsite.jp/static_contents/site/tsite/haneda-airport/img/about/key.jpg?time=200324"
                }
              ]
            }
          ]
        }
      ]
    }
  ]
}